var flags = {
type: "FeatureCollection",
name: "dorsetdives2",
crs: { "type": "name", "properties": { "name": "urn:ogc:def:crs:OGC:1.3:CRS84" } },
features: [
{ "type": "Feature", "properties": { "NAME": "Anworth", "Description": "AKA 'Lobster Wreck'. Small coaster carrying bags of cement. Identified from ship's bell but no other records have been founder for her.", "LAT": 50.5269166666667, "LON":-2.56225, "TYPE": "Wreck", "MAXDEPTH": 35, "PROTECTED": "", "SHORE":"", "SNORKEL": "", "TIDAL": "Y"}, "geometry": { "type": "Point", "coordinates": [-2.56225,50.5269166666667 ] } },
{ "type": "Feature", "properties": { "NAME": "Alex van Opstal", "Description": "Belgian merchant ship, one of the first casualties of World War II. Sunk by a U-boat laid mine in Sep 1939. Length: 128m", "LAT": 50.5406166666667, "LON":-2.26888333333333, "TYPE": "Wreck", "MAXDEPTH": 28, "PROTECTED": "", "SHORE":"", "SNORKEL": "", "TIDAL": "Y"}, "geometry": { "type": "Point", "coordinates": [-2.26888333333333,50.5406166666667 ] } },
{ "type": "Feature", "properties": { "NAME": "Netley Abbey", "Description": "British steam cargo ship, sank in Aug 1899 after colliding with HMS Surprise. Wreck ID is probably but not yet irrefutable. Length 79m.", "LAT": 50.5121, "LON":-2.1083, "TYPE": "Wreck", "MAXDEPTH": 39, "PROTECTED": "", "SHORE":"", "SNORKEL": "", "TIDAL": "Y"}, "geometry": { "type": "Point", "coordinates": [-2.1083,50.5121 ] } },
{ "type": "Feature", "properties": { "NAME": "Moidart", "Description": "British steam-driven coal carrier, torpedoed by UC77 in Jun 1918. Wreck lies in two parts with bow and stern adjacent. Length: 72m", "LAT": 50.5673833333333, "LON":-2.78803333333333, "TYPE": "Wreck", "MAXDEPTH": 33, "PROTECTED": "", "SHORE":"", "SNORKEL": "", "TIDAL": "Y"}, "geometry": { "type": "Point", "coordinates": [-2.78803333333333,50.5673833333333 ] } },
{ "type": "Feature", "properties": { "NAME": "Cragside", "Description": "British-built steamer. Lost in Feb 1923 when storms drove her on to the breakwater. Quite broken up but rudder and propeller still present.", "LAT": 50.581, "LON":-2.415167, "TYPE": "Wreck", "MAXDEPTH": 15, "PROTECTED": "", "SHORE":"", "SNORKEL": "", "TIDAL": "Y"}, "geometry": { "type": "Point", "coordinates": [-2.415167,50.581 ] } },
{ "type": "Feature", "properties": { "NAME": "Bournemouth Pier", "Description": "Concrete and wood pier structure. Offers shelter to fish and invertabrates. Popular toruist site which usually yields dropped 'treasure'.", "LAT": 50.7147442, "LON":-1.8749993, "TYPE": "Structure", "MAXDEPTH": 8, "PROTECTED": "", "SHORE":"Y", "SNORKEL": "Y", "TIDAL": "Y"}, "geometry": { "type": "Point", "coordinates": [-1.8749993,50.7147442 ] } },
{ "type": "Feature", "properties": { "NAME": "Alum Chine", "Description": "Dispersed site with 3 old outfall pipes running from shore interspersed with several small rocky reefs. Covered in weed and sea life.", "LAT": 50.708719, "LON":-1.889948, "TYPE": "Reef", "MAXDEPTH": 10, "PROTECTED": "", "SHORE":"", "SNORKEL": "", "TIDAL": ""}, "geometry": { "type": "Point", "coordinates": [-1.889948,50.708719 ] } },
{ "type": "Feature", "properties": { "NAME": "Binnendijk", "Description": "Dutch cargo ship, known locally as 'The Benny'. Sank in Oct 1939 after striking magentic mine laid by U-26. Quite broken up. Length: 121m ", "LAT": 50.535463, "LON":-2.334543, "TYPE": "Wreck", "MAXDEPTH": 27, "PROTECTED": "", "SHORE":"", "SNORKEL": "", "TIDAL": "Y"}, "geometry": { "type": "Point", "coordinates": [-2.334543,50.535463 ] } },
{ "type": "Feature", "properties": { "NAME": "Swanage Pier", "Description": "Easy dive under the old wooden pier. Plenty of sealife to be seen between the pier legs.", "LAT": 50.6091932, "LON":-1.9498609, "TYPE": "Structure", "MAXDEPTH": 6, "PROTECTED": "", "SHORE":"Y", "SNORKEL": "Y", "TIDAL": ""}, "geometry": { "type": "Point", "coordinates": [-1.9498609,50.6091932 ] } },
{ "type": "Feature", "properties": { "NAME": "Ringstead", "Description": "Easy shore dive around rocky reefs and tidal lagoons. Plenty of kelp and fish. Popular with spearfishers.", "LAT": 50.6307122441201, "LON":-2.35311043939618, "TYPE": "Reef", "MAXDEPTH": 10, "PROTECTED": "N", "SHORE":"Y", "SNORKEL": "Y", "TIDAL": "Y"}, "geometry": { "type": "Point", "coordinates": [-2.35311043939618,50.6307122441201 ] } },
{ "type": "Feature", "properties": { "NAME": "Valentine Tanks", "Description": "Experimental WW2 amphibious tanks specially built for the Normandy invasion. Several sank in Studland Bay on exericse before D-Day.", "LAT": 50.657458, "LON":-1.890124, "TYPE": "Wreck", "MAXDEPTH": 15, "PROTECTED": "Y", "SHORE":"", "SNORKEL": "", "TIDAL": "Y"}, "geometry": { "type": "Point", "coordinates": [-1.890124,50.657458 ] } },
{ "type": "Feature", "properties": { "NAME": "Old Harry", "Description": "Fast drift dive starting or finishing at iconic rock stack. Varying depth over ledges and gullies.", "LAT": 50.6347, "LON":-1.91573333333333, "TYPE": "Drift", "MAXDEPTH": 25, "PROTECTED": "", "SHORE":"", "SNORKEL": "", "TIDAL": "Y"}, "geometry": { "type": "Point", "coordinates": [-1.91573333333333,50.6347 ] } },
{ "type": "Feature", "properties": { "NAME": "Peveril Ledges", "Description": "Fast drift over the ledges in vicinity of Peveril Point. Varying depth over ledges. Depths can exceed 30m if pushed too far south.", "LAT": 50.6079, "LON":-1.93771666666667, "TYPE": "Drift", "MAXDEPTH": 22, "PROTECTED": "", "SHORE":"", "SNORKEL": "", "TIDAL": "Y"}, "geometry": { "type": "Point", "coordinates": [-1.93771666666667,50.6079 ] } },
{ "type": "Feature", "properties": { "NAME": "Elena RÂ ", "Description": "Greek cargo ship, another victim of U-26. Sunk after striking a mine in Nov 1939. Sits on the Shamble bank. Lenth: 112m", "LAT": 50.4992666666667, "LON":-2.3443, "TYPE": "Wreck", "MAXDEPTH": 28, "PROTECTED": "", "SHORE":"", "SNORKEL": "", "TIDAL": "Y"}, "geometry": { "type": "Point", "coordinates": [-2.3443,50.4992666666667 ] } },
{ "type": "Feature", "properties": { "NAME": "Countess of Erne", "Description": "Iron-hulled paddle steamer built in 1868 . Sunk during a storm in Sep 1935. Sits upright on a silty bed against the breakwater. Length 80m", "LAT": 50.586596, "LON":-2.41941, "TYPE": "Wreck", "MAXDEPTH": 15, "PROTECTED": "", "SHORE":"", "SNORKEL": "", "TIDAL": "Y"}, "geometry": { "type": "Point", "coordinates": [-2.41941,50.586596 ] } },
{ "type": "Feature", "properties": { "NAME": "Gertrude", "Description": "Iron-hulled steam ship. Ran aground in fog Nov 1894, sunk with no loss of life. Remains lie between boulders, boiler prominent. Length 75m.", "LAT": 50.5465, "LON":-2.45416666666667, "TYPE": "Wreck", "MAXDEPTH": 14, "PROTECTED": "", "SHORE":"", "SNORKEL": "", "TIDAL": "Y"}, "geometry": { "type": "Point", "coordinates": [-2.45416666666667,50.5465 ] } },
{ "type": "Feature", "properties": { "NAME": "Clan Macvey", "Description": "Large British steamer lost only a month after launching. Torpedoed Aug 1918 by UB-57 in shallow water. Silts over occassioanlly. Length 120m", "LAT": 50.633333, "LON":-1.780719, "TYPE": "Wreck", "MAXDEPTH": 18, "PROTECTED": "", "SHORE":"", "SNORKEL": "", "TIDAL": "Y"}, "geometry": { "type": "Point", "coordinates": [-1.780719,50.633333 ] } },
{ "type": "Feature", "properties": { "NAME": "Durley Rocks", "Description": "Large crop of rocks standing about 5m proud of a sandy seabed. Usually covered in weed and a magent for local fish life.", "LAT": 50.7088611111111, "LON":-1.88468055555556, "TYPE": "Reef", "MAXDEPTH": 12, "PROTECTED": "", "SHORE":"", "SNORKEL": "", "TIDAL": ""}, "geometry": { "type": "Point", "coordinates": [-1.88468055555556,50.7088611111111 ] } },
{ "type": "Feature", "properties": { "NAME": "Solent Beach", "Description": "Large outfall pipe a short swim off the beach. Bass seen in large numbers here. Swept by strong tides eitehr side of slack water.", "LAT": 50.714703, "LON":-1.776511, "TYPE": "Structure", "MAXDEPTH": 8, "PROTECTED": "", "SHORE":"Y", "SNORKEL": "", "TIDAL": "Y"}, "geometry": { "type": "Point", "coordinates": [-1.776511,50.714703 ] } },
{ "type": "Feature", "properties": { "NAME": "Shore Road", "Description": "Large outfall pipe on a rocky bed running 600m out to sea. Accessible dive site usually covered in weed and marine life.", "LAT": 50.6936361111111, "LON":-1.927725, "TYPE": "Reef", "MAXDEPTH": 10, "PROTECTED": "", "SHORE":"Y", "SNORKEL": "Y", "TIDAL": ""}, "geometry": { "type": "Point", "coordinates": [-1.927725,50.6936361111111 ] } },
{ "type": "Feature", "properties": { "NAME": "Durdle Door", "Description": "Marked by the iconic rock arch on a UNESCO heritage site. Rocky piles, gullies and caverns with plenty of marine life. Can be snorkeled.", "LAT": 50.62109, "LON":-2.277, "TYPE": "Reef", "MAXDEPTH": 18, "PROTECTED": "", "SHORE":"Y", "SNORKEL": "", "TIDAL": ""}, "geometry": { "type": "Point", "coordinates": [-2.277,50.62109 ] } },
{ "type": "Feature", "properties": { "NAME": "Bombardon & LCT", "Description": "Metal breakwater built to be towed across the Channel on D-Day. Nearby & lined is an upright wreck of a Landing Craft Tank wreck.", "LAT": 50.5735, "LON":-2.416333, "TYPE": "Wreck", "MAXDEPTH": 14, "PROTECTED": "", "SHORE":"", "SNORKEL": "", "TIDAL": "Y"}, "geometry": { "type": "Point", "coordinates": [-2.416333,50.5735 ] } },
{ "type": "Feature", "properties": { "NAME": "Aeolian Sky", "Description": "Modern cargo ship lost following a collision during a storm in Nov 1979. Lies on port side with damage from blasting. Length: 148m", "LAT": 50.509756, "LON":-2.140527, "TYPE": "Wreck", "MAXDEPTH": 30, "PROTECTED": "", "SHORE":"", "SNORKEL": "", "TIDAL": "Y"}, "geometry": { "type": "Point", "coordinates": [-2.140527,50.509756 ] } },
{ "type": "Feature", "properties": { "NAME": "Pulpit Rock", "Description": "Named for the conspicuous rock formation above the site. Located between 2 tide currents. Rocky ledges with lots of nooks and crannies.", "LAT": 50.51415, "LON":-2.45958, "TYPE": "Reef", "MAXDEPTH": 25, "PROTECTED": "", "SHORE":"", "SNORKEL": "", "TIDAL": "Y"}, "geometry": { "type": "Point", "coordinates": [-2.45958,50.51415 ] } },
{ "type": "Feature", "properties": { "NAME": "Aerials", "Description": "Named for the old Naval radio research station on the cliff above. Drift over rokcy ledges between 15 to 30m. Beware: some deep drop offs.", "LAT": 50.5169060573237, "LON":-2.46092662722054, "TYPE": "Drift", "MAXDEPTH": 25, "PROTECTED": "", "SHORE":"", "SNORKEL": "", "TIDAL": "Y"}, "geometry": { "type": "Point", "coordinates": [-2.46092662722054,50.5169060573237 ] } },
{ "type": "Feature", "properties": { "NAME": "Frogner", "Description": "Norwegian steam merchant ship. Torpedoed by U-boat UB-17 in Apr 1918. Sits upright on the seabed. Lots of large lobsters. Length 51m", "LAT": 50.53385, "LON":-2.5522, "TYPE": "Wreck", "MAXDEPTH": 36, "PROTECTED": "", "SHORE":"", "SNORKEL": "", "TIDAL": "Y"}, "geometry": { "type": "Point", "coordinates": [-2.5522,50.53385 ] } },
{ "type": "Feature", "properties": { "NAME": "Aalesund", "Description": "Norweigian steam merchant ship. Torpedoed and sunk by German U-boat in Jan 2018. Length: 44m", "LAT": 50.46, "LON":-1.55, "TYPE": "Wreck", "MAXDEPTH": 43, "PROTECTED": "", "SHORE":"", "SNORKEL": "", "TIDAL": "Y"}, "geometry": { "type": "Point", "coordinates": [-1.55,50.46 ] } },
{ "type": "Feature", "properties": { "NAME": "Poole Outer Patch", "Description": "Outcrop of rocky reef on an otherwise flat silty seabed. Part of the Poole Rocks MCZ. Habitat for rarer UK species", "LAT": 50.69067, "LON":-1.878695, "TYPE": "Reef", "MAXDEPTH": 15, "PROTECTED": "", "SHORE":"", "SNORKEL": "", "TIDAL": "Y"}, "geometry": { "type": "Point", "coordinates": [-1.878695,50.69067 ] } },
{ "type": "Feature", "properties": { "NAME": "Branksome Beach", "Description": "Pair of large surface water drain pipes on raised beds with several rocky reefs nearby and further out to sea. Good site foe marine life.", "LAT": 50.704349, "LON":-1.905873, "TYPE": "Reef", "MAXDEPTH": 10, "PROTECTED": "", "SHORE":"Y", "SNORKEL": "Y", "TIDAL": ""}, "geometry": { "type": "Point", "coordinates": [-1.905873,50.704349 ] } },
{ "type": "Feature", "properties": { "NAME": "Wrasse Reef", "Description": "Promient rock formation inside the Pool Rocks MCZ. Notable for tubular rock formations.", "LAT": 50.6839166666667, "LON":-1.8976, "TYPE": "Reef", "MAXDEPTH": 12, "PROTECTED": "Y", "SHORE":"", "SNORKEL": "", "TIDAL": ""}, "geometry": { "type": "Point", "coordinates": [-1.8976,50.6839166666667 ] } },
{ "type": "Feature", "properties": { "NAME": "Pinnacle", "Description": "Prominent rock with many holes in the middle of the main channel. Dive on slack water only and treat as an overhead envirnoment.", "LAT": 50.6803555555556, "LON":-1.94531111111111, "TYPE": "Reef", "MAXDEPTH": 18, "PROTECTED": "", "SHORE":"Y", "SNORKEL": "", "TIDAL": "Y"}, "geometry": { "type": "Point", "coordinates": [-1.94531111111111,50.6803555555556 ] } },
{ "type": "Feature", "properties": { "NAME": "Worbarrow Tout", "Description": "Remains of a barge wreck lying within a rocky reef. Large boulders make several small caverns. Beware of ordnance from nearby range.", "LAT": 50.6143333333333, "LON":-2.1872, "TYPE": "Wreck", "MAXDEPTH": 12, "PROTECTED": "", "SHORE":"", "SNORKEL": "", "TIDAL": "Y"}, "geometry": { "type": "Point", "coordinates": [-2.1872,50.6143333333333 ] } },
{ "type": "Feature", "properties": { "NAME": "Training Bank", "Description": "Remains of an old breakwater running from shore out to sea. Inland site is sheltered from waves. Can also be snorkelled.", "LAT": 50.66815, "LON":-1.93616, "TYPE": "Reef", "MAXDEPTH": 5, "PROTECTED": "Y", "SHORE":"Y", "SNORKEL": "Y", "TIDAL": ""}, "geometry": { "type": "Point", "coordinates": [-1.93616,50.66815 ] } },
{ "type": "Feature", "properties": { "NAME": "Lulworth Banks", "Description": "Rocky ledges and sandy banks make up this large feature. Usualy good for marine life, particularly crustaceans and molluscs.", "LAT": 50.59225, "LON":-2.26583333333333, "TYPE": "Reef", "MAXDEPTH": 25, "PROTECTED": "", "SHORE":"", "SNORKEL": "", "TIDAL": "Y"}, "geometry": { "type": "Point", "coordinates": [-2.26583333333333,50.59225 ] } },
{ "type": "Feature", "properties": { "NAME": "A3", "Description": "Royal Navy A-class submarine. Deliberatley sunk in Jan 2012 after suffing collision damage from HMS HAZARD. Length 32m. Height: 5m", "LAT": 50.52373, "LON":-2.188583, "TYPE": "Wreck", "MAXDEPTH": 39, "PROTECTED": "Y", "SHORE":"N", "SNORKEL": "N", "TIDAL": "Y"}, "geometry": { "type": "Point", "coordinates": [-2.188583,50.52373 ] } },
{ "type": "Feature", "properties": { "NAME": "Acheron", "Description": "Royal Navy destroyer. Sunk after striking a Luftwaffe-dropped mine in Dec 1940. Only 19 crew from 215 souls survived. Length: 101m", "LAT": 50.533333, "LON":-1.433333, "TYPE": "Wreck", "MAXDEPTH": 48, "PROTECTED": "Y", "SHORE":"", "SNORKEL": "", "TIDAL": "Y"}, "geometry": { "type": "Point", "coordinates": [-1.433333,50.533333 ] } },
{ "type": "Feature", "properties": { "NAME": "Newton's Cove", "Description": "Shallow and easy shore dive in a sheltered cove. Usu", "LAT": 50.6041, "LON":-2.4504, "TYPE": "Reef", "MAXDEPTH": 5, "PROTECTED": "N", "SHORE":"Y", "SNORKEL": "Y", "TIDAL": "Y"}, "geometry": { "type": "Point", "coordinates": [-2.4504,50.6041 ] } },
{ "type": "Feature", "properties": { "NAME": "Kimmeridge Bay", "Description": "Shallow, sheltered cove with rocky beds and ledges varying depths. Lots of weed and anenomes. Greater depths to seaward outside the bay.", "LAT": 50.6088027777778, "LON":-2.13353611111111, "TYPE": "Reef", "MAXDEPTH": 5, "PROTECTED": "", "SHORE":"Y", "SNORKEL": "", "TIDAL": "Y"}, "geometry": { "type": "Point", "coordinates": [-2.13353611111111,50.6088027777778 ] } },
{ "type": "Feature", "properties": { "NAME": "Worbarrow Bay", "Description": "Sheltered bay with reefs running down from encircling cliffs. Rocky bottom with lots of weed and kelp.", "LAT": 50.6176138888889, "LON":-2.19018333333333, "TYPE": "Reef", "MAXDEPTH": 18, "PROTECTED": "", "SHORE":"Y", "SNORKEL": "", "TIDAL": "Y"}, "geometry": { "type": "Point", "coordinates": [-2.19018333333333,50.6176138888889 ] } },
{ "type": "Feature", "properties": { "NAME": "Chesil Cove", "Description": "Sheltered cove with variable sand and rocky bottom. Some shipwreck remains around. Usually good for marine life. Very popular site.", "LAT": 50.5589333333333, "LON":-2.45005, "TYPE": "Reef", "MAXDEPTH": 20, "PROTECTED": "", "SHORE":"Y", "SNORKEL": "Y", "TIDAL": "Y"}, "geometry": { "type": "Point", "coordinates": [-2.45005,50.5589333333333 ] } },
{ "type": "Feature", "properties": { "NAME": "Bournemouth Rocks", "Description": "Small outcrop of rock standing up about 5m from a sandy seabed. Provides shelter for many fish and other marine life.", "LAT": 50.705556, "LON":-1.888749, "TYPE": "Reef", "MAXDEPTH": 10, "PROTECTED": "", "SHORE":"", "SNORKEL": "", "TIDAL": ""}, "geometry": { "type": "Point", "coordinates": [-1.888749,50.705556 ] } },
{ "type": "Feature", "properties": { "NAME": "Poole Middle Patch", "Description": "Smaller outcrop of rocky reef on an otherwise flat silty seabed. Part of the Poole Rocks MCZ. Habitat for rarer UK species", "LAT": 50.687803, "LON":-1.888603, "TYPE": "Reef", "MAXDEPTH": 15, "PROTECTED": "Y", "SHORE":"", "SNORKEL": "", "TIDAL": ""}, "geometry": { "type": "Point", "coordinates": [-1.888603,50.687803 ] } },
{ "type": "Feature", "properties": { "NAME": "Enecuri (Spaniard)", "Description": "Spanish steamer sank Dec 1900 after gales drove her on to the breakwater. Captain and dog lost after going aboard post-grounding. Broken up.", "LAT": 50.5805, "LON":-2.4155, "TYPE": "Wreck", "MAXDEPTH": 14, "PROTECTED": "", "SHORE":"", "SNORKEL": "", "TIDAL": "Y"}, "geometry": { "type": "Point", "coordinates": [-2.4155,50.5805 ] } },
{ "type": "Feature", "properties": { "NAME": "Kyarra", "Description": "Steam liner converted to a hospital ship during the Great War. Sunk by UB-57 in May 1918 with full cargo. Lies on stbd side. Length 126m", "LAT": 50.582155, "LON":-1.943317, "TYPE": "Wreck", "MAXDEPTH": 30, "PROTECTED": "", "SHORE":"", "SNORKEL": "", "TIDAL": "Y"}, "geometry": { "type": "Point", "coordinates": [-1.943317,50.582155 ] } },
{ "type": "Feature", "properties": { "NAME": "Borgny", "Description": "Steam merchant ship sunk by a mine in Feb 1918. Stern is inverted with rudder & propeller standing upright. Length 70m", "LAT": 50.590858, "LON":-1.695619, "TYPE": "Wreck", "MAXDEPTH": 32, "PROTECTED": "", "SHORE":"", "SNORKEL": "", "TIDAL": "Y"}, "geometry": { "type": "Point", "coordinates": [-1.695619,50.590858 ] } },
{ "type": "Feature", "properties": { "NAME": "Arfon", "Description": "Steam trawler taken up for minesweeping duty in the Great War. Sank after striking a mine in Apr 1917 with loss of 10 lives. Length 42m", "LAT": 50.542789, "LON":-2.059448, "TYPE": "Wreck", "MAXDEPTH": 42, "PROTECTED": "Y", "SHORE":"", "SNORKEL": "", "TIDAL": "Y"}, "geometry": { "type": "Point", "coordinates": [-2.059448,50.542789 ] } },
{ "type": "Feature", "properties": { "NAME": "Venezuela", "Description": "Steam-driven cargo ship with triple expansion engine. Torpedoed by UB-59 in Mar 1918 and lost with all hands. Quite broken up. Length: 73m", "LAT": 50.5961666666667, "LON":-1.72283333333333, "TYPE": "Wreck", "MAXDEPTH": 28, "PROTECTED": "", "SHORE":"", "SNORKEL": "", "TIDAL": "Y"}, "geometry": { "type": "Point", "coordinates": [-1.72283333333333,50.5961666666667 ] } },
{ "type": "Feature", "properties": { "NAME": "Betsy Anna", "Description": "Steam-driven coal carrier. Grounded on Prawle Point, Devon in fog Aug 1926. Later salvaged but sunk under tow Oct 1926. Length 62.", "LAT": 50.616379, "LON":-1.81633, "TYPE": "Wreck", "MAXDEPTH": 24, "PROTECTED": "", "SHORE":"", "SNORKEL": "", "TIDAL": "Y"}, "geometry": { "type": "Point", "coordinates": [-1.81633,50.616379 ] } },
{ "type": "Feature", "properties": { "NAME": "James Fennell", "Description": "Steam-powered Admiralty trawler. Foundered in Jan 1920 afters striking rocks in heavy fog. Large parts sit upright amongst a boulder field.", "LAT": 50.545833, "LON":-2.455, "TYPE": "Wreck", "MAXDEPTH": 18, "PROTECTED": "", "SHORE":"", "SNORKEL": "", "TIDAL": "Y"}, "geometry": { "type": "Point", "coordinates": [-2.455,50.545833 ] } },
{ "type": "Feature", "properties": { "NAME": "St Dunstan", "Description": "Steam-powered bucket dregder converted to mine-sweeping role in the Great War. Sunk by a mine from UC-21 in Sep 1917. Length 61m", "LAT": 50.6383, "LON":-2.700933, "TYPE": "Wreck", "MAXDEPTH": 29, "PROTECTED": "", "SHORE":"", "SNORKEL": "", "TIDAL": "Y"}, "geometry": { "type": "Point", "coordinates": [-2.700933,50.6383 ] } },
{ "type": "Feature", "properties": { "NAME": "Castlereagh", "Description": "Steam-powered coal carrier lost in a storm with all hands in Feb 1925. Formerly known as 'Firth Fisher'.Upright on sea bed. Length: 52m", "LAT": 50.5806666666667, "LON":-1.93616666666667, "TYPE": "Wreck", "MAXDEPTH": 33, "PROTECTED": "", "SHORE":"", "SNORKEL": "", "TIDAL": "Y"}, "geometry": { "type": "Point", "coordinates": [-1.93616666666667,50.5806666666667 ] } },
{ "type": "Feature", "properties": { "NAME": "M2", "Description": "Submarine aircraft carrier from interwar period. Lost in tragic accident with all hands in Jan 1932. Intact and upright. Length 90m.", "LAT": 50.576807, "LON":-2.566408, "TYPE": "Wreck", "MAXDEPTH": 34, "PROTECTED": "", "SHORE":"", "SNORKEL": "", "TIDAL": "Y"}, "geometry": { "type": "Point", "coordinates": [-2.566408,50.576807 ] } },
{ "type": "Feature", "properties": { "NAME": "Carantan", "Description": "Submarine-hunter warship, served in Royal Navy & Free French Forces. Sank in a storm in Dec 1943. Lies on side, quite broken up. Length 36m", "LAT": 50.5831, "LON":-1.936833, "TYPE": "Wreck", "MAXDEPTH": 29, "PROTECTED": "", "SHORE":"", "SNORKEL": "", "TIDAL": "Y"}, "geometry": { "type": "Point", "coordinates": [-1.936833,50.5831 ] } },
{ "type": "Feature", "properties": { "NAME": "Dredger", "Description": "Unidentified dredger. Lies agains the seaward side of the breakwater. Quite broken up. Breakwater can be explored on same dive.", "LAT": 50.568019, "LON":-2.424296, "TYPE": "Wreck", "MAXDEPTH": 12, "PROTECTED": "", "SHORE":"", "SNORKEL": "", "TIDAL": "Y"}, "geometry": { "type": "Point", "coordinates": [-2.424296,50.568019 ] } },
{ "type": "Feature", "properties": { "NAME": "Fleur de Lys", "Description": "Wooden-hulled trawler. Damaged by a water-heater explosion in Apr 2000. Taken under tow to Poole but sank enroute. Length 16m.", "LAT": 50.6266666666667, "LON":-1.93566666666667, "TYPE": "Wreck", "MAXDEPTH": 13, "PROTECTED": "", "SHORE":"Y", "SNORKEL": "", "TIDAL": "Y"}, "geometry": { "type": "Point", "coordinates": [-1.93566666666667,50.6266666666667 ] } },
{ "type": "Feature", "properties": { "NAME": "Black Hawk - bow", "Description": "WW2 'Liberty' ship torpedoed by U-772 in Dec 1944. The blast blew the stern off. Bow was towed inshore before sinking. Quite broken up.", "LAT": 50.6135638888889, "LON":-2.20727777777778, "TYPE": "Wreck", "MAXDEPTH": 15, "PROTECTED": "", "SHORE":"", "SNORKEL": "", "TIDAL": "Y"}, "geometry": { "type": "Point", "coordinates": [-2.20727777777778,50.6135638888889 ] } },
]
}
